,City,Lat,Lng,MaxTemp,Humidity,Cloudiness,Wind Speed,Country,Date
0,ushuaia,-54.8,-68.3,276.96,81,20,2.57,AR,1650173169
1,rikitea,-23.1203,-134.9692,299.09,67,17,6.57,PF,1650173229
2,new norfolk,-42.7826,147.0587,299.22,34,100,2.24,AU,1650173230
3,fortuna,40.5982,-124.1573,279.07,88,0,2.06,US,1650173230
4,port elizabeth,-33.918,25.5701,289.44,95,20,4.12,ZA,1650173231
5,sosnovo-ozerskoye,52.5249,111.5418,282.22,44,96,6.27,RU,1650173232
6,mataura,-46.1927,168.8643,285.08,63,96,0.5,NZ,1650173233
7,punta arenas,-53.15,-70.9167,281.21,87,100,6.17,CL,1650173195
8,hilo,19.7297,-155.09,294.97,96,100,2.57,US,1650173235
9,bluff,-46.6,168.3333,285.26,63,84,2.68,NZ,1650173236
10,abu samrah,35.3029,37.1841,291.74,30,15,2.5,SY,1650173236
11,honningsvag,70.9821,25.9704,277.01,81,100,12.86,NO,1650173237
12,vaini,-21.2,-175.2,300.24,83,20,2.57,TO,1650173238
13,ngunguru,-35.6167,174.5,291.85,82,100,10.42,NZ,1650173239
14,peniche,39.3558,-9.3811,286.64,86,100,6.72,PT,1650173240
15,jamestown,42.097,-79.2353,274.92,68,100,3.6,US,1650173212
16,hermanus,-34.4187,19.2345,286.37,86,15,4.95,ZA,1650173226
17,laguna,38.421,-121.4238,287.29,66,0,4.63,US,1650173242
18,babu,24.4167,111.5167,286.23,95,100,2.06,CN,1650173243
19,castro,-24.7911,-50.0119,282.28,99,14,2.32,BR,1650173243
20,porto novo,6.4965,2.6036,300.05,84,87,1.84,BJ,1650173244
21,puerto ayora,-0.7393,-90.3518,297.06,92,69,2.27,EC,1650173245
22,sao joao da barra,-21.6403,-41.0511,292.78,84,27,4.52,BR,1650173127
23,cape town,-33.9258,18.4232,287.65,75,0,2.57,ZA,1650173166
24,bayeux,-7.125,-34.9322,298.5,94,75,1.03,BR,1650173246
25,busselton,-33.65,115.3333,292.63,43,31,5.21,AU,1650173247
26,jinchang,38.4953,102.1739,284.45,21,1,13.74,CN,1650173248
27,mehamn,71.0357,27.8492,276.07,92,100,11.26,NO,1650173222
28,westport,41.1415,-73.3579,280.42,93,100,2.57,US,1650173249
29,butaritari,3.0707,172.7902,301.09,75,65,4.65,KI,1650173250
30,hithadhoo,-0.6,73.0833,301.84,62,96,2.67,MV,1650173250
31,chulumani,-16.4096,-67.5263,289.68,96,95,0.79,BO,1650173251
32,albany,42.6001,-73.9662,276.38,91,69,3.18,US,1650173252
33,kijang,35.2442,129.2139,294.0,28,0,3.94,KR,1650173253
34,longyearbyen,78.2186,15.6401,266.06,73,75,2.06,SJ,1650173253
35,tuktoyaktuk,69.4541,-133.0374,254.15,71,40,3.09,CA,1650173254
36,hobart,-42.8794,147.3294,299.41,40,75,8.75,AU,1650173255
37,lebu,-37.6167,-73.65,284.52,92,38,3.45,CL,1650173255
38,yellowknife,62.456,-114.3525,258.44,61,20,1.54,CA,1650173256
39,katsuura,35.1333,140.3,288.22,61,100,4.24,JP,1650173257
40,ardesen,41.1911,40.9875,287.63,62,4,0.88,TR,1650173258
41,avarua,-21.2078,-159.775,298.18,94,100,0.51,CK,1650173259
42,tongliao,43.6125,122.2653,289.26,23,38,4.59,CN,1650173115
43,dossor,47.5272,52.9811,288.15,54,38,1.9,KZ,1650173260
44,aklavik,68.2191,-135.0107,257.82,89,23,5.18,CA,1650173261
45,port lincoln,-34.7333,135.8667,292.43,69,100,4.87,AU,1650173261
46,saint-philippe,-21.3585,55.7679,300.49,81,25,4.92,RE,1650173263
47,menongue,-14.6585,17.691,289.05,98,97,1.41,AO,1650173263
48,ishigaki,24.3448,124.1572,296.22,68,75,5.66,JP,1650173264
49,khatanga,71.9667,102.5,269.35,93,95,4.92,RU,1650173265
50,realeza,-25.7689,-53.5325,283.53,88,0,1.14,BR,1650173266
51,lagoa,39.05,-27.9833,287.43,74,0,6.23,PT,1650173266
52,saint-francois,46.4154,3.9054,279.64,80,0,0.51,FR,1650173267
53,georgetown,5.4112,100.3354,306.12,62,20,3.6,MY,1650173268
54,tchibanga,-2.85,11.0333,295.41,98,95,0.96,GA,1650173268
55,nikolskoye,59.7035,30.7861,277.52,68,49,1.2,RU,1650173269
56,komsomolskiy,40.4272,71.7189,296.55,31,92,2.06,UZ,1650173270
57,prince rupert,54.3161,-130.3201,278.98,75,0,1.54,CA,1650173271
58,port alfred,-33.5906,26.891,287.69,95,81,4.46,ZA,1650173271
59,ereymentau,51.6199,73.1033,289.55,47,88,4.92,KZ,1650173272
60,annau,37.8876,58.516,284.87,94,100,5.14,TM,1650173273
61,isangel,-19.55,169.2667,301.29,73,35,1.71,VU,1650173274
62,saint-joseph,-21.3667,55.6167,299.93,77,12,4.4,RE,1650173275
63,kaitangata,-46.2817,169.8464,285.66,70,91,4.59,NZ,1650173275
64,caravelas,-17.7125,-39.2481,297.45,77,100,4.4,BR,1650173276
65,wicklow,53.0,-6.4167,281.39,96,100,1.96,IE,1650173277
66,provideniya,64.3833,-173.3,273.29,95,99,5.55,RU,1650173277
67,halifax,44.6453,-63.5724,281.09,92,100,4.12,CA,1650173116
68,caborca,30.5838,-111.101,292.11,20,8,0.91,MX,1650173279
69,sturgis,41.7992,-85.4192,272.29,80,0,0.0,US,1650173280
70,dongtai,32.8523,120.3095,291.44,34,44,3.27,CN,1650173281
71,okhotsk,59.3833,143.3,271.11,76,99,3.93,RU,1650173282
72,bethel,41.3712,-73.414,279.53,92,100,2.06,US,1650173283
73,korla,41.7597,86.1469,289.89,8,0,3.32,CN,1650173283
74,ola,59.5833,151.2833,274.9,60,56,0.96,RU,1650173284
75,capoterra,39.1763,8.9718,286.78,82,0,4.12,IT,1650173285
76,moncton,46.1159,-64.8019,280.42,87,100,6.69,CA,1650173278
77,bridgetown,13.1,-59.6167,299.42,73,20,9.26,BB,1650173286
78,nanortalik,60.1432,-45.2371,271.53,81,96,4.01,GL,1650173287
79,the valley,18.217,-63.0578,299.07,75,58,10.56,AI,1650173287
80,nouadhibou,20.931,-17.0347,290.14,94,75,4.63,MR,1650173288
81,taoudenni,22.6783,-3.9836,294.55,32,0,4.45,ML,1650173289
82,matadi,-5.8167,13.45,296.99,96,87,0.42,CD,1650173289
83,flin flon,54.7682,-101.865,266.82,90,100,1.68,CA,1650173290
84,riyadh,24.6877,46.7219,298.23,14,1,5.2,SA,1650173287
85,ilulissat,69.2167,-51.1,249.47,89,6,1.96,GL,1650173059
86,biltine,14.5333,20.9167,301.15,36,39,3.21,TD,1650173292
87,kampene,-3.6,26.6667,293.3,96,91,0.65,CD,1650173293
88,bengkulu,-3.8004,102.2655,302.97,67,79,3.35,ID,1650173293
89,hashtrud,37.4779,47.0508,279.13,59,4,0.96,IR,1650173294
90,bandarbeyla,9.4942,50.8122,302.3,66,28,4.6,SO,1650173295
91,lere,10.387,8.5726,295.3,78,100,1.56,NG,1650173295
92,tuatapere,-46.1333,167.6833,286.18,65,79,1.17,NZ,1650173296
93,sotnikovskoye,45.0039,43.7772,285.62,61,11,4.13,RU,1650173297
94,caarapo,-22.6342,-54.8222,286.84,85,15,1.93,BR,1650173298
95,grindavik,63.8424,-22.4338,279.41,100,75,6.17,IS,1650173299
96,cayenne,4.9333,-52.3333,299.87,1,75,2.24,GF,1650173300
97,kodiak,57.79,-152.4072,276.88,81,100,5.66,US,1650173077
98,vao,-22.6667,167.4833,298.51,67,0,2.87,NC,1650173301
99,kouroussa,10.65,-9.8833,299.36,67,90,1.77,GN,1650173301
100,oxford,51.7522,-1.256,281.07,92,100,2.06,GB,1650173211
101,los llanos de aridane,28.6585,-17.9182,289.01,82,0,5.14,ES,1650173303
102,flinders,-34.5833,150.8552,298.25,65,1,2.68,AU,1650173304
103,ribeira grande,38.5167,-28.7,288.06,77,5,8.54,PT,1650173127
104,faya,18.3851,42.4509,294.21,30,0,1.2,SA,1650173305
105,clinton,42.587,-82.9199,274.76,61,100,5.14,US,1650173306
106,manokwari,-0.8667,134.0833,302.02,71,35,2.59,ID,1650173307
107,hanmer springs,-42.5167,172.8167,284.08,87,100,1.34,NZ,1650173307
108,airai,-8.9266,125.4092,294.63,78,57,0.93,TL,1650173308
109,awjilah,29.1081,21.2869,292.8,60,94,7.97,LY,1650173309
110,kahului,20.8947,-156.47,297.51,72,75,8.05,US,1650173309
111,mbekenyera,-10.0,38.9833,295.82,96,72,2.04,TZ,1650173310
112,badarwas,24.9667,77.5667,309.99,10,0,4.42,IN,1650173311
113,atuona,-9.8,-139.0333,299.14,80,73,7.42,PF,1650173312
114,chokurdakh,70.6333,147.9167,260.82,88,22,1.84,RU,1650173312
115,the pas,53.8251,-101.2541,268.16,54,75,3.09,CA,1650173313
116,astana,51.1801,71.446,290.12,42,40,10.0,KZ,1650173314
117,mangrol,21.1167,70.1167,303.34,53,0,5.1,IN,1650173316
118,thompson,55.7435,-97.8558,265.24,57,75,1.54,CA,1650173317
119,lorengau,-2.0226,147.2712,302.49,71,45,1.99,PG,1650173318
120,lucapa,-8.4192,20.7447,291.37,96,88,0.93,AO,1650173319
121,east london,-33.0153,27.9116,287.67,94,0,2.06,ZA,1650173320
122,sao filipe,14.8961,-24.4956,294.22,81,39,2.74,CV,1650173320
123,mvomero,-6.25,38.6667,296.98,94,100,2.32,TZ,1650173321
124,sovetskiy,61.3614,63.5842,271.84,75,100,3.41,RU,1650173322
125,morondava,-20.2833,44.2833,299.98,87,2,3.23,MG,1650173322
126,upernavik,72.7868,-56.1549,243.67,100,74,3.51,GL,1650173323
127,zhigansk,66.7697,123.3711,267.52,88,100,9.0,RU,1650173324
128,camacha,33.0833,-16.3333,287.83,88,20,7.72,PT,1650173325
129,mayo,38.8876,-76.5119,287.64,78,75,3.09,US,1650173325
130,puerto leguizamo,-0.1934,-74.7819,295.6,98,98,0.97,CO,1650173326
131,ponta delgada,37.7333,-25.6667,288.55,88,20,7.2,PT,1650173092
132,jiaxing,30.7522,120.75,290.47,46,99,4.78,CN,1650173327
133,chuy,-33.6971,-53.4616,288.41,84,13,1.28,UY,1650173328
134,cabra,37.4725,-4.4421,287.73,63,2,0.99,ES,1650173329
135,ofunato,39.0717,141.7167,285.12,54,0,5.68,JP,1650173329
136,qaanaaq,77.484,-69.3632,243.54,72,4,3.61,GL,1650173330
137,kapaa,22.0752,-159.319,298.14,97,100,6.69,US,1650173331
138,vestmannaeyjar,63.4427,-20.2734,280.97,80,44,5.5,IS,1650173331
139,tocopilla,-22.092,-70.1979,290.2,69,5,2.37,CL,1650173332
140,maningrida,-12.0667,134.2667,304.59,57,53,3.65,AU,1650173333
141,trairi,-3.2778,-39.2689,297.29,90,73,1.63,BR,1650173334
142,constitucion,-35.3333,-72.4167,284.8,77,0,1.81,CL,1650173334
143,balkhash,46.844,74.9804,291.49,14,0,8.0,KZ,1650173335
144,nizhniy kuranakh,58.8353,125.4869,273.87,64,100,2.27,RU,1650173336
145,nobeoka,32.5833,131.6667,292.54,42,12,3.1,JP,1650173336
146,cherskiy,68.75,161.3,265.18,87,99,5.13,RU,1650173337
147,lata,40.1629,-8.3327,283.1,93,93,0.88,PT,1650173338
148,bredasdorp,-34.5322,20.0403,285.84,88,3,2.58,ZA,1650173338
149,esperance,-33.8667,121.9,292.06,63,97,6.16,AU,1650173339
150,severo-kurilsk,50.6789,156.125,273.65,82,100,5.84,RU,1650173340
151,kasongo-lunda,-6.4667,16.8167,293.82,99,100,0.89,CD,1650173341
152,bushenyi,-0.5853,30.2114,289.44,92,100,1.01,UG,1650173341
153,saskylakh,71.9167,114.0833,268.27,92,100,8.94,RU,1650173342
154,havelock,34.8791,-76.9013,292.56,93,100,0.89,US,1650173135
155,dubbo,-32.25,148.6167,298.22,38,0,3.09,AU,1650173343
156,deputatskiy,69.3,139.9,263.15,89,100,1.82,RU,1650173344
157,strzelin,50.7816,17.0648,276.74,77,45,2.06,PL,1650173345
158,massape,-3.5228,-40.3428,295.83,97,93,0.31,BR,1650173346
159,soyo,-6.1349,12.3689,298.05,92,85,2.59,AO,1650173346
160,muisne,0.6,-80.0333,297.45,88,100,2.87,EC,1650173347
161,mathbaria,22.2876,89.9593,307.34,50,27,7.3,BD,1650173348
162,hambantota,6.1241,81.1185,304.34,79,75,3.09,LK,1650173349
163,dikson,73.5069,80.5464,260.16,89,100,6.8,RU,1650173349
164,nedumangad,8.6,77.0,302.75,74,75,2.06,IN,1650173350
165,asau,46.4333,26.4,277.01,83,100,3.98,RO,1650173351
166,kholm-zhirkovskiy,55.5189,33.4731,273.2,70,7,6.42,RU,1650173352
167,beverley,53.8459,-0.4233,281.44,52,100,1.03,GB,1650173352
168,mahebourg,-20.4081,57.7,300.51,89,75,6.17,MU,1650173353
169,half moon bay,37.4636,-122.4286,283.72,79,0,5.14,US,1650173354
170,norman wells,65.282,-126.8329,259.17,47,20,1.54,CA,1650173355
171,statesboro,32.4488,-81.7832,292.3,94,0,0.0,US,1650173356
172,luderitz,-26.6481,15.1594,289.93,60,0,4.14,NA,1650173356
173,victoria,22.2855,114.1577,298.18,66,99,2.68,HK,1650173241
174,aktanysh,55.7216,54.0829,276.05,67,94,4.38,RU,1650173358
175,point pedro,9.8167,80.2333,303.56,70,36,6.56,LK,1650173358
176,hengyang,26.8881,112.615,284.87,87,100,2.01,CN,1650173360
177,methven,-43.6333,171.65,283.72,94,100,1.34,NZ,1650173360
178,souillac,-20.5167,57.5167,299.36,89,75,6.17,MU,1650173361
179,torbay,47.6666,-52.7314,280.31,74,40,8.75,CA,1650173362
180,clyde river,70.4692,-68.5914,249.28,84,100,1.03,CA,1650173362
181,richards bay,-28.783,32.0377,291.03,86,100,1.93,ZA,1650173363
182,salvador,13.8333,-88.9167,296.51,86,24,0.64,SV,1650173364
183,sitka,57.0531,-135.33,279.09,61,100,2.57,US,1650173365
184,saint george,37.1041,-113.5841,292.73,28,0,3.09,US,1650173365
185,tasiilaq,65.6145,-37.6368,274.24,99,100,2.32,GL,1650173366
186,veraval,20.9,70.3667,303.62,52,0,5.05,IN,1650173367
187,tokur,53.1333,132.9,271.53,71,100,4.69,RU,1650173367
188,druzhba,52.0428,33.9453,274.18,96,100,5.2,UA,1650173368
189,folldal,62.1325,9.9968,270.34,61,100,1.9,NO,1650173369
190,meulaboh,4.1363,96.1285,303.51,66,33,2.15,ID,1650173370
191,olinda,-8.0089,-34.8553,300.0,78,40,2.57,BR,1650173371
192,inhambane,-23.865,35.3833,297.14,94,40,3.09,MZ,1650173371
193,mena,51.5217,32.2157,274.95,99,100,4.55,UA,1650173372
194,pangody,65.85,74.4859,263.08,85,100,7.59,RU,1650173373
195,rocha,-34.4833,-54.3333,284.93,92,0,0.98,UY,1650173374
196,raga,8.4596,25.678,299.15,64,91,1.47,SS,1650173374
197,santiago del estero,-27.7951,-64.2615,288.45,60,8,2.08,AR,1650173375
198,mount isa,-20.7333,139.5,307.02,17,4,4.12,AU,1650173376
199,piacabucu,-10.4056,-36.4344,298.6,88,14,3.08,BR,1650173376
200,rawson,-43.3002,-65.1023,284.67,76,0,5.03,AR,1650173377
201,la rioja,42.25,-2.5,276.03,68,3,2.74,ES,1650173370
202,ganzhou,28.8184,115.4327,286.93,76,91,0.87,CN,1650173378
203,champerico,14.3,-91.9167,301.78,72,9,4.18,GT,1650173379
204,klaksvik,62.2266,-6.589,281.66,98,100,8.26,FO,1650173380
205,jiamusi,46.8333,130.35,283.51,22,47,6.31,CN,1650173381
206,carnarvon,-24.8667,113.6333,299.19,69,93,8.75,AU,1650173382
207,ambilobe,-13.2,49.05,298.22,71,6,1.32,MG,1650173383
208,bathsheba,13.2167,-59.5167,299.49,73,20,9.26,BB,1650173384
209,cacoal,-11.4386,-61.4472,294.8,97,96,1.26,BR,1650173384
210,batagay,67.6333,134.6333,268.05,74,100,1.87,RU,1650173385
211,reconquista,-29.15,-59.65,286.55,91,22,2.37,AR,1650173386
212,barrow,71.2906,-156.7887,258.16,78,0,6.17,US,1650173387
213,gorin,51.1983,136.6669,274.32,87,100,5.44,RU,1650173388
214,port-gentil,-0.7193,8.7815,299.13,100,75,1.54,GA,1650173388
215,koulamoutou,-1.1303,12.4736,294.6,98,98,0.96,GA,1650173389
216,ostrovnoy,68.0531,39.5131,275.19,98,100,9.4,RU,1650173390
217,ustyuzhna,58.8394,36.4321,273.21,78,11,2.31,RU,1650173391
218,calamar,10.2511,-74.9146,299.63,85,65,3.23,CO,1650173391
219,ancud,-41.8697,-73.8203,282.86,86,0,1.19,CL,1650173392
220,iqaluit,63.7506,-68.5145,257.0,77,75,7.2,CA,1650173393
221,daru,-9.0763,143.2092,301.35,81,93,3.16,PG,1650173393
222,nacogdoches,31.6002,-94.6335,296.07,98,40,1.32,US,1650173394
223,moree,-29.4667,149.85,300.16,29,0,2.57,AU,1650173395
224,torbat-e jam,35.244,60.6225,290.03,45,98,2.9,IR,1650173396
225,hovd,48.0056,91.6419,285.49,12,0,2.62,MN,1650173397
226,robertson,36.5167,-86.8667,286.42,63,100,3.09,US,1650173178
227,cidreira,-30.1811,-50.2056,291.51,74,67,2.88,BR,1650173398
228,kruisfontein,-34.0033,24.7314,288.64,91,0,1.21,ZA,1650173399
229,salalah,17.0151,54.0924,302.2,74,40,4.12,OM,1650173105
230,kapit,2.0167,112.9333,306.59,54,94,1.07,MY,1650173400
231,pingliang,35.5392,106.6861,285.73,26,100,6.94,CN,1650173402
232,quanzhou,24.9139,118.5858,295.48,46,56,5.29,CN,1650173407
233,erenhot,43.6475,111.9767,287.33,16,88,4.57,CN,1650173408
234,wanaka,-44.7,169.15,287.1,57,100,0.69,NZ,1650173409
235,sur,22.5667,59.5289,307.67,31,28,1.83,OM,1650173410
236,buraydah,26.326,43.975,296.4,10,0,5.56,SA,1650173411
237,pitimbu,-7.4706,-34.8086,298.48,86,82,2.79,BR,1650173413
238,shabqadar,34.2139,71.5552,303.27,11,94,1.56,PK,1650173414
239,makurdi,7.7411,8.5121,299.67,74,81,0.7,NG,1650173415
240,codrington,-38.2667,141.9667,293.03,65,100,6.14,AU,1650173416
241,mattru,7.6244,-11.8332,296.4,91,87,0.77,SL,1650173416
242,umm kaddadah,13.6017,26.6876,302.89,8,18,2.81,SD,1650173417
243,lompoc,34.6391,-120.4579,285.38,87,100,3.58,US,1650173418
244,booue,-0.0921,11.9385,297.16,95,91,0.36,GA,1650173419
245,ingham,42.6,-84.3833,271.94,69,40,2.57,US,1650173420
246,ixtapa,20.7,-105.2,296.05,69,100,1.42,MX,1650173264
247,goderich,43.7501,-81.7165,274.21,80,100,7.72,CA,1650173422
248,genhe,50.7833,121.5167,276.64,27,46,2.92,CN,1650173422
249,hobyo,5.3505,48.5268,302.97,67,51,3.74,SO,1650173423
250,arraial do cabo,-22.9661,-42.0278,294.94,75,8,6.61,BR,1650173424
251,waipawa,-41.4122,175.5153,282.84,77,20,2.6,NZ,1650173424
252,port macquarie,-31.4333,152.9167,293.83,75,95,1.75,AU,1650173425
253,nador,35.174,-2.9287,288.29,58,0,1.54,MA,1650173426
254,kailua,21.4022,-157.7394,297.14,85,79,1.34,US,1650173427
255,brewster,41.3973,-73.6171,279.6,93,100,2.06,US,1650173428
256,chapais,49.7834,-74.8492,271.03,94,97,4.59,CA,1650173428
257,lichinga,-13.3128,35.2406,290.58,90,67,3.5,MZ,1650173429
258,kemijarvi,66.7131,27.4306,276.44,80,100,2.56,FI,1650173430
259,sao gabriel da cachoeira,-0.1303,-67.0892,295.22,99,77,0.46,BR,1650173431
260,solnechnyy,50.7214,136.6319,273.49,84,100,4.43,RU,1650173431
261,lisala,2.15,21.5167,296.95,82,69,0.97,CD,1650173433
262,bridlington,54.0831,-0.1919,281.42,85,100,4.72,GB,1650173433
263,dudinka,69.4058,86.1778,264.5,92,100,6.61,RU,1650173434
264,bowling green,36.9903,-86.4436,285.11,47,0,1.54,US,1650173401
265,guder,8.9667,37.7667,292.85,69,92,0.15,ET,1650173435
266,marsh harbour,26.5412,-77.0636,297.24,76,0,4.55,BS,1650173436
267,clayton,33.5335,-84.3666,290.98,97,100,2.06,US,1650173420
268,ponta do sol,32.6667,-17.1,294.5,45,100,4.22,PT,1650173437
269,otjimbingwe,-22.35,16.1333,294.07,39,55,2.61,NA,1650173438
270,edson,53.5835,-116.4356,271.23,74,100,4.12,CA,1650173439
271,lakatoro,-16.0999,167.4164,301.27,75,70,1.52,VU,1650173440
272,nguru,12.8791,10.4526,302.08,50,97,3.62,NG,1650173441
273,bonthe,7.5264,-12.505,297.77,82,69,1.53,SL,1650173369
274,batemans bay,-35.7167,150.1833,294.87,63,3,5.84,AU,1650173442
275,balikpapan,-1.2675,116.8289,302.7,74,20,3.09,ID,1650173443
276,ruwi,23.5996,58.5507,308.98,38,9,3.07,OM,1650173443
277,skelleftea,64.7507,20.9528,274.35,93,12,2.06,SE,1650173444
278,adre,13.4667,22.2,302.84,23,76,2.49,TD,1650173445
279,ahipara,-35.1667,173.1667,289.43,83,100,7.65,NZ,1650173446
280,teya,60.3778,92.6267,278.73,97,100,4.66,RU,1650173446
281,egvekinot,66.3167,-179.1667,267.14,92,76,3.41,RU,1650173447
282,bambous virieux,-20.3428,57.7575,300.49,89,75,6.17,MU,1650173448
283,beloha,-25.1667,45.05,299.39,70,65,3.51,MG,1650173448
284,watsa,3.0372,29.5355,295.68,68,100,1.25,CD,1650173449
285,saint-augustin,51.226,-58.6502,270.63,95,67,3.37,CA,1650173450
286,praia da vitoria,38.7333,-27.0667,287.46,88,40,5.12,PT,1650173451
287,tramore,52.1624,-7.1524,283.25,80,100,2.68,IE,1650173451
288,aras,42.5617,-2.356,278.38,81,0,3.6,ES,1650173452
289,kamalpur,24.2,91.8333,305.95,54,72,2.01,IN,1650173453
290,matagami,49.7502,-77.6328,271.21,80,100,6.17,CA,1650173454
291,carberry,49.8689,-99.3602,265.28,95,64,1.85,CA,1650173455
292,bubaque,11.2833,-15.8333,297.26,65,11,4.52,GW,1650173456
293,sokolo,14.7328,-6.1219,299.81,34,69,2.77,ML,1650173456
294,turukhansk,65.8167,87.9833,269.51,85,100,7.87,RU,1650173457
295,madang,-5.2246,145.7966,302.65,69,45,2.97,PG,1650173458
296,zyryanka,65.75,150.85,268.34,80,100,1.76,RU,1650173458
297,lashio,22.9333,97.75,308.28,22,6,2.59,MM,1650173459
298,dhamrai,23.9202,90.2109,305.14,38,23,5.65,BD,1650173460
299,gusau,12.1628,6.6614,301.29,50,98,2.54,NG,1650173461
300,mayor pablo lagerenza,-19.9309,-60.7718,292.24,49,100,2.14,PY,1650173462
301,puerto escondido,15.85,-97.0667,300.07,70,8,3.76,MX,1650173463
302,wilkie,52.4168,-108.7014,268.36,82,100,2.17,CA,1650173464
303,adrar,20.5022,-10.0711,295.3,15,0,5.27,MR,1650173464
304,kurchum,48.5722,83.6542,292.38,12,0,10.41,KZ,1650173465
305,te anau,-45.4167,167.7167,283.56,73,64,0.05,NZ,1650173466
306,pavilosta,56.8879,21.1859,273.1,59,58,2.51,LV,1650173467
307,gol,60.7014,8.9457,275.25,73,100,0.94,NO,1650173468
308,dwarka,22.2394,68.9678,302.41,66,0,7.09,IN,1650173468
309,angoche,-16.2325,39.9086,300.3,85,35,4.75,MZ,1650173469
310,timizart,36.8,4.2667,285.12,74,1,2.45,DZ,1650173471
311,yerbogachen,61.2767,108.0108,279.0,89,100,5.67,RU,1650173216
312,mount gambier,-37.8333,140.7667,291.1,88,75,4.12,AU,1650173445
313,jaypur,18.85,82.5833,310.38,17,92,3.68,IN,1650173472
314,cabo san lucas,22.8909,-109.9124,296.27,55,98,4.84,MX,1650173473
315,carballo,43.213,-8.691,285.32,91,100,1.58,ES,1650173474
316,aswan,24.0934,32.907,298.76,13,0,3.09,EG,1650173341
317,pisco,-13.7,-76.2167,290.38,82,0,0.0,PE,1650173475
318,hualmay,-11.0964,-77.6139,291.81,88,100,3.03,PE,1650173476
319,anadyr,64.75,177.4833,274.43,80,40,8.0,RU,1650173477
320,indore,22.7179,75.8333,308.25,23,0,3.6,IN,1650173248
321,damaturu,11.747,11.9608,301.07,48,93,3.75,NG,1650173478
322,gazli,40.1333,63.45,298.07,31,17,6.87,UZ,1650173479
323,padang,-0.9492,100.3543,305.18,70,35,2.97,ID,1650173480
324,shenjiamen,29.9576,122.298,287.49,51,56,3.53,CN,1650173481
325,nioro,13.35,-15.75,295.37,39,28,3.87,GM,1650173482
326,san quintin,30.4833,-115.95,287.86,89,0,6.48,MX,1650173483
327,chiang klang,19.2938,100.8617,310.57,29,23,2.38,TH,1650173483
328,kachiry,53.0675,76.1036,291.17,40,98,2.59,KZ,1650173484
329,aqtobe,50.2797,57.2072,284.2,54,0,1.0,KZ,1650173485
330,necochea,-38.5473,-58.7368,286.18,74,85,1.64,AR,1650173486
331,mar del plata,-38.0023,-57.5575,288.08,89,78,1.79,AR,1650173333
332,kampot,10.6167,104.1833,303.18,67,97,3.46,KH,1650173487
333,maragogi,-9.0122,-35.2225,298.4,89,79,2.4,BR,1650173274
334,puerto penasco,31.3167,-113.5333,291.99,78,0,1.15,MX,1650173410
335,ornskoldsvik,63.2909,18.7153,276.68,87,35,3.6,SE,1650173489
336,brae,60.3964,-1.353,281.28,94,100,5.56,GB,1650173490
337,arona,28.0996,-16.681,295.44,19,0,8.75,ES,1650173490
338,danville,36.586,-79.395,289.46,82,0,2.06,US,1650173491
339,finschhafen,-6.6024,147.8681,302.44,74,79,3.77,PG,1650173493
340,kavaratti,10.5669,72.642,302.33,72,51,3.38,IN,1650173494
341,ambon,-3.6954,128.1814,303.23,74,20,3.6,ID,1650173495
342,auki,-8.7676,160.7034,300.72,80,87,0.45,SB,1650173495
343,contamana,-7.3333,-75.0167,295.8,89,27,0.36,PE,1650173496
344,santa isabel,-23.3156,-46.2214,289.76,92,95,0.84,BR,1650173497
345,la poza,20.1167,-96.9667,297.55,86,4,0.96,MX,1650173497
346,gotsu,35.0,132.2167,288.96,47,2,3.14,JP,1650173498
347,hukuntsi,-24.0,21.75,290.54,85,61,6.45,BW,1650173499
348,aksha,50.2814,113.2867,284.62,31,84,6.49,RU,1650173500
349,petropavlovsk-kamchatskiy,53.0452,158.6483,277.48,42,0,5.0,RU,1650173487
350,namatanai,-3.6667,152.4333,301.89,73,53,3.81,PG,1650173501
351,antofagasta,-23.65,-70.4,287.75,77,37,2.54,CL,1650173502
352,tawang,27.5833,91.8667,287.11,53,57,3.52,IN,1650173503
353,bombay,19.0144,72.8479,305.14,58,40,3.6,IN,1650173436
354,cachoeira do sul,-30.0392,-52.8939,284.01,95,0,1.31,BR,1650173505
355,zambrow,52.9855,22.2432,276.45,62,92,3.92,PL,1650173505
356,baiyin,36.5583,104.2081,285.36,16,89,4.24,CN,1650173506
357,creston,41.0586,-94.3614,276.92,60,0,4.12,US,1650173507
358,elk city,35.412,-99.4043,283.27,53,100,0.0,US,1650173346
359,opuwo,-18.0607,13.84,293.23,44,87,2.18,NA,1650173508
360,vestmanna,62.1564,-7.1664,280.66,100,100,5.66,FO,1650173510
361,broome,42.2506,-75.833,275.21,76,40,4.63,US,1650173510
362,payo,-3.7508,103.6372,305.36,58,77,1.51,ID,1650173511
363,nenjiang,49.1833,125.2167,281.47,29,83,3.58,CN,1650173512
364,valparaiso,-33.0393,-71.6273,286.75,75,0,1.54,CL,1650173513
365,vallenar,-28.5708,-70.7581,288.25,65,0,0.41,CL,1650173427
366,todos santos,23.45,-110.2167,290.74,86,95,2.47,MX,1650173514
367,lazaro cardenas,17.9583,-102.2,295.69,81,5,0.57,MX,1650173402
368,narsaq,60.9167,-46.05,273.27,85,20,0.74,GL,1650173515
369,chipinge,-20.1883,32.6236,290.57,94,93,1.47,ZW,1650173516
370,muros,42.7762,-9.0603,285.28,87,98,3.33,ES,1650173517
371,varnavino,57.4035,45.0916,275.15,52,81,6.36,RU,1650173518
372,palmer,42.1584,-72.3287,278.49,85,100,1.54,US,1650173519
373,kieta,-6.2167,155.6333,300.08,83,97,1.86,PG,1650173519
374,suez,29.9737,32.5263,301.46,11,0,3.01,EG,1650173520
375,bouar,5.934,15.596,295.51,70,57,1.01,CF,1650173521
376,nizwa,22.9333,57.5333,308.91,12,13,2.76,OM,1650173522
377,sisimiut,66.9395,-53.6735,263.05,53,3,2.71,GL,1650173523
378,radis,36.7681,10.2753,288.1,77,20,6.17,TN,1650173524
379,cedartown,34.0537,-85.255,289.48,95,52,0.97,US,1650173251
380,havoysund,70.9963,24.6622,277.28,91,100,10.46,NO,1650173525
381,tromso,69.6496,18.957,278.36,87,75,7.2,NO,1650173526
382,college,64.8569,-147.8028,271.33,38,20,6.69,US,1650173526
383,kupang,-10.1667,123.5833,302.24,74,53,1.32,ID,1650173414
384,krasnyy kholm,58.0607,37.1203,274.41,66,8,4.15,RU,1650173528
385,avera,33.194,-82.5271,290.88,95,100,1.35,US,1650173529
386,boyolangu,-8.1181,111.8935,303.32,69,58,2.02,ID,1650173529
387,kununurra,-15.7667,128.7333,308.14,49,95,2.06,AU,1650173530
388,darnah,32.767,22.6367,290.99,81,98,2.69,LY,1650173531
389,dingle,10.9995,122.6711,303.6,63,98,4.53,PH,1650173532
390,vila velha,-20.3297,-40.2925,295.34,76,0,2.68,BR,1650173532
391,kaoma,-14.7833,24.8,291.85,93,99,2.27,ZM,1650173533
392,buritis,-15.6178,-46.4233,293.37,97,87,1.72,BR,1650173534
393,black river,18.0264,-77.8487,296.2,85,11,1.67,JM,1650173535
394,killin,33.6123,-91.7412,290.2,93,100,3.6,US,1650173535
395,lavrentiya,65.5833,-171.0,272.13,98,100,4.98,RU,1650173536
396,bom jesus,-9.0744,-44.3586,294.88,97,46,0.52,BR,1650173537
397,wanning,18.8003,110.3967,301.53,67,50,4.04,CN,1650173538
398,quesnel,52.9999,-122.5029,272.43,47,0,0.0,CA,1650173538
399,nelson bay,-32.7167,152.15,296.53,71,17,5.06,AU,1650173539
400,sao miguel do araguaia,-13.275,-50.1628,294.82,94,88,1.66,BR,1650173540
401,batticaloa,7.7102,81.6924,303.23,68,79,1.71,LK,1650173541
402,atbasar,51.8,68.3333,284.98,56,100,4.17,KZ,1650173541
403,saldanha,-33.0117,17.9442,285.18,66,0,3.23,ZA,1650173542
404,manacapuru,-3.2997,-60.6206,297.1,94,100,1.57,BR,1650173543
405,ahuimanu,21.4447,-157.8378,296.99,81,75,7.72,US,1650173544
406,bac lieu,9.285,105.7244,303.89,60,76,5.34,VN,1650173290
407,srednekolymsk,67.45,153.6833,266.39,85,100,3.53,RU,1650173545
408,krasnoselkup,65.7,82.4667,266.48,86,100,8.18,RU,1650173546
409,kushiro,42.975,144.3747,283.68,57,40,7.72,JP,1650173546
410,sorland,67.667,12.6934,278.55,93,100,9.25,NO,1650173547
411,loukhi,66.0764,33.0381,274.76,93,100,3.82,RU,1650173548
412,paredon,16.0333,-93.8667,301.11,75,50,1.13,MX,1650173549
413,shakawe,-18.3667,21.85,292.42,88,84,2.29,BW,1650173549
414,la crosse,43.8014,-91.2396,274.22,70,0,1.54,US,1650173510
415,bilma,18.6853,12.9164,300.13,9,78,4.26,NE,1650173550
416,san cristobal,7.7669,-72.225,297.25,97,100,1.87,VE,1650173551
417,brigantine,39.4101,-74.3646,282.62,91,100,2.57,US,1650173552
418,itarema,-2.9248,-39.9167,297.58,89,89,2.44,BR,1650173553
419,cairns,-16.9167,145.7667,301.54,72,100,5.66,AU,1650173521
420,ozernovskiy,51.5,156.5167,273.29,80,100,3.59,RU,1650173554
421,faanui,-16.4833,-151.75,301.02,71,11,6.42,PF,1650173555
422,chapada dos guimaraes,-15.4606,-55.7497,292.96,82,57,0.94,BR,1650173555
423,hoganas,56.1997,12.558,273.37,73,45,1.1,SE,1650173556
424,sale,34.0389,-6.8166,283.53,100,4,0.0,MA,1650173557
425,verkhniye kigi,55.4083,58.6044,276.85,59,65,1.2,RU,1650173558
426,chifeng,42.2683,118.9636,291.43,11,92,4.13,CN,1650173559
427,coquimbo,-29.9533,-71.3436,285.0,93,28,0.0,CL,1650173559
428,bilibino,68.0546,166.4372,268.59,84,99,0.94,RU,1650173560
429,angoram,-4.0625,144.0661,302.32,72,67,2.46,PG,1650173561
430,qaqortoq,60.7167,-46.0333,270.12,88,22,2.79,GL,1650173562
431,quthing,-30.4,27.7003,284.64,80,100,0.18,LS,1650173563
432,inskoy,54.4297,86.44,291.18,30,66,6.66,RU,1650173564
433,byron bay,-28.65,153.6167,296.09,72,82,4.75,AU,1650173564
434,hasaki,35.7333,140.8333,290.53,55,99,4.64,JP,1650173565
435,galveston,29.3669,-94.9669,297.13,93,100,5.14,US,1650173507
436,port augusta,-32.5,137.7667,302.64,22,100,5.52,AU,1650173566
437,strezhevoy,60.7333,77.5889,273.02,71,100,6.12,RU,1650173567
438,molteno,-31.3968,26.3625,282.62,88,100,1.13,ZA,1650173568
439,raudeberg,61.9875,5.1352,280.3,70,100,4.7,NO,1650173568
440,waingapu,-9.6567,120.2641,303.17,71,63,3.66,ID,1650173569
441,fasa,28.9383,53.6482,295.73,33,20,0.0,IR,1650173570
442,haines junction,60.7522,-137.5108,271.12,86,100,1.54,CA,1650173571
443,sindor,62.8629,51.8905,273.05,70,29,3.28,RU,1650173571
444,teodoro sampaio,-22.5325,-52.1675,286.88,84,0,2.27,BR,1650173572
445,kysyl-syr,63.8986,122.7617,272.96,80,96,4.24,RU,1650173573
446,sondrio,46.169,9.8692,283.19,56,1,1.24,IT,1650173573
447,port hedland,-20.3167,118.5667,312.18,15,27,6.69,AU,1650173490
448,vaitape,-16.5167,-151.75,301.03,71,11,6.4,PF,1650173575
449,emborion,40.4833,21.55,281.35,91,100,1.68,GR,1650173575
450,porto nacional,-10.7081,-48.4172,298.15,98,100,1.06,BR,1650173576
451,matay,28.419,30.7792,304.21,12,0,4.95,EG,1650173577
452,jalu,29.0331,21.5482,293.76,55,99,8.41,LY,1650173577
453,ponca city,36.707,-97.0856,286.13,43,100,6.17,US,1650173578
454,saint anthony,45.0205,-93.218,272.93,60,0,2.06,US,1650173581
455,margate,51.3813,1.3862,281.65,86,67,0.89,GB,1650173582
456,tiksi,71.6872,128.8694,260.23,90,20,3.06,RU,1650173583
457,damietta,31.4165,31.8133,292.09,61,7,6.37,EG,1650173584
458,kasungu,-13.0333,33.4833,294.44,79,54,4.27,MW,1650173585
459,ordzhonikidze,52.4411,61.7408,281.33,61,9,3.53,KZ,1650173586
460,kropotkin,45.4375,40.5756,287.42,65,80,2.25,RU,1650173586
461,payson,40.0444,-111.7321,284.21,61,100,3.13,US,1650173587
462,bakel,14.905,-12.4568,303.07,14,54,5.76,SN,1650173588
463,tallahassee,30.4383,-84.2807,292.51,95,100,1.54,US,1650173532
464,mahon,39.8885,4.2658,288.46,72,0,5.14,ES,1650173589
465,plettenberg bay,-34.0527,23.3716,288.42,70,1,1.9,ZA,1650173590
466,pevek,69.7008,170.3133,258.18,92,97,2.31,RU,1650173591
467,lewiston,44.1003,-70.2148,278.5,97,100,0.0,US,1650173389
468,paamiut,61.994,-49.6678,268.43,84,52,0.77,GL,1650173593
469,beringovskiy,63.05,179.3167,272.96,98,100,8.06,RU,1650173594
470,aasiaat,68.7098,-52.8699,249.66,100,58,1.64,GL,1650173595
471,pietarsaari,63.65,22.6833,274.76,90,51,2.89,FI,1650173597
472,christiana,-27.914,25.1611,288.01,81,90,4.27,ZA,1650173598
473,abu zabad,12.35,29.25,302.85,46,64,4.97,SD,1650173598
474,leshukonskoye,64.8989,45.7622,274.02,94,100,3.85,RU,1650173599
475,mackay,-21.15,149.2,301.86,69,4,7.72,AU,1650173600
476,amuntai,-2.4177,115.2494,302.32,68,100,1.26,ID,1650173601
477,la palma,33.8464,-118.0467,290.0,83,0,2.06,US,1650173549
478,bay roberts,47.5999,-53.2648,280.74,73,73,4.02,CA,1650173602
479,tamale,9.4008,-0.8393,298.61,59,94,1.4,GH,1650173603
480,praia,14.9215,-23.5087,294.45,73,40,4.12,CV,1650173604
481,geraldton,-28.7667,114.6,296.38,56,80,6.69,AU,1650173604
482,nicolet,46.2168,-72.6158,276.09,60,100,2.06,CA,1650173424
483,gbarnga,6.9956,-9.4722,294.79,98,100,2.0,LR,1650173606
484,waddan,29.1614,16.139,289.73,66,0,5.61,LY,1650173606
485,virginia beach,36.8529,-75.978,293.17,85,100,1.34,US,1650173363
486,mabaruma,8.2,-59.7833,295.05,96,87,1.39,GY,1650173608
487,chara,56.9064,118.2631,270.44,74,98,1.74,RU,1650173608
488,spearfish,44.4908,-103.8594,280.64,45,0,14.4,US,1650173609
489,yar-sale,66.8333,70.8333,262.32,80,81,5.13,RU,1650173610
490,neyshabur,36.2133,58.7958,292.06,36,100,2.74,IR,1650173611
491,ninh binh,20.2539,105.975,294.09,82,100,2.17,VN,1650173612
492,sennoy,52.1509,46.9631,286.65,68,100,4.98,RU,1650173613
493,port moresby,-9.4431,147.1797,305.83,58,40,4.12,PG,1650173613
494,guarapari,-20.6667,-40.4975,295.31,86,31,4.16,BR,1650173614
495,dourbali,11.8091,15.8632,304.65,40,100,3.75,TD,1650173615
496,talnakh,69.4865,88.3972,264.2,91,97,7.74,RU,1650173615
497,lodwar,3.1191,35.5973,300.89,56,100,1.66,KE,1650173616
498,lafia,8.4833,8.5167,299.71,75,84,1.6,NG,1650173617
499,jacareacanga,-6.2222,-57.7528,295.86,99,100,0.25,BR,1650173618
500,marsaxlokk,35.8419,14.5431,288.19,88,0,2.57,MT,1650173619
501,maldonado,-34.6667,-54.9167,287.72,92,23,1.97,UY,1650173405
502,gudari,19.35,83.7833,314.6,18,77,1.29,IN,1650173620
503,rancho palos verdes,33.7445,-118.387,288.99,90,0,1.79,US,1650173621
504,bartica,6.4,-58.6167,297.33,98,48,0.67,GY,1650173621
505,ayan,56.45,138.1667,271.27,75,76,2.14,RU,1650173622
506,reyes,-14.3167,-67.3833,294.79,68,97,1.48,BO,1650173623
507,ucluelet,48.9329,-125.5528,275.98,82,52,2.92,CA,1650173624
508,kavieng,-2.5744,150.7967,302.28,72,32,4.61,PG,1650173624
509,kangasala,61.4638,24.076,275.0,67,83,2.49,FI,1650173625
510,verkhoyansk,67.5447,133.385,269.25,68,100,2.76,RU,1650173626
511,najran,17.4924,44.1277,301.51,18,17,3.33,SA,1650173627
512,tukrah,32.5341,20.5791,289.43,84,94,7.68,LY,1650173628
513,armidale,-30.5167,151.65,291.74,51,0,1.99,AU,1650173628
514,ust-omchug,61.15,149.6333,267.72,80,99,3.0,RU,1650173630
515,alpena,45.0617,-83.4327,270.99,73,100,3.09,US,1650173631
516,durban,-29.8579,31.0292,290.33,95,100,0.89,ZA,1650173631
517,lufilufi,-13.8745,-171.5986,302.03,75,11,6.6,WS,1650173632
518,kabinda,-6.1333,24.4833,294.6,85,99,1.54,CD,1650173633
519,coihaique,-45.5752,-72.0662,278.12,87,0,2.57,CL,1650173502
520,urumqi,43.801,87.6005,290.68,13,0,4.0,CN,1650173409
521,bundaberg,-24.85,152.35,299.38,60,40,5.66,AU,1650173634
522,sassandra,4.95,-6.0833,295.96,94,99,3.78,CI,1650173635
523,port hawkesbury,45.6169,-61.3485,281.36,88,75,3.09,CA,1650173484
524,asahikawa,43.7678,142.3703,284.71,50,75,6.69,JP,1650173636
525,baley,51.6,116.6333,278.01,36,57,3.17,RU,1650173637
526,mareeba,-17.0,145.4333,298.97,79,100,3.11,AU,1650173638
527,gizo,-8.103,156.8419,300.81,74,100,3.3,SB,1650173639
528,ribas do rio pardo,-20.4431,-53.7592,287.19,78,0,1.53,BR,1650173639
529,coahuayana,18.7333,-103.6833,294.7,80,79,0.8,MX,1650173640
530,naze,28.3667,129.4833,293.66,57,76,4.87,JP,1650173641
531,vakhrushev,48.9833,142.9667,273.19,96,100,3.56,RU,1650173642
532,bucerias,20.75,-105.3333,296.47,69,100,2.14,MX,1650173642
533,calatayud,41.3535,-1.6432,281.79,63,1,1.45,ES,1650173643
534,grand forks,47.9417,-97.4337,261.11,85,0,1.54,US,1650173440
535,fort morgan,40.2503,-103.8,276.51,48,0,5.66,US,1650173644
536,umea,63.8284,20.2597,276.11,87,0,2.06,SE,1650173645
537,leningradskiy,69.3833,178.4167,261.73,96,91,2.52,RU,1650173646
538,arlit,18.7369,7.3853,296.24,17,97,3.39,NE,1650173647
539,novovarshavka,54.1721,74.6946,287.32,42,96,3.67,RU,1650173648
540,patitirion,39.15,23.8667,285.03,76,95,8.08,GR,1650173648
541,partsa,54.3653,42.8617,274.42,88,100,4.49,RU,1650173649
542,phan thiet,10.9333,108.1,303.65,63,33,5.29,VN,1650173650
543,san patricio,28.017,-97.5169,297.5,94,93,3.4,US,1650173651
544,oum hadjer,13.2954,19.6966,304.3,39,36,4.2,TD,1650173651
545,harbour breton,47.4833,-55.7983,276.12,89,86,1.68,CA,1650173652
546,montevideo,-34.8335,-56.1674,289.99,72,0,2.06,UY,1650173438
547,pachino,36.7186,15.0907,288.11,67,100,0.84,IT,1650173653
548,buhe,30.2876,112.2298,285.83,76,100,2.21,CN,1650173654
549,lerwick,60.1545,-1.1494,281.15,96,100,6.83,GB,1650173655
550,bongandanga,1.5,21.05,297.41,81,96,1.14,CD,1650173655
551,fare,-16.7,-151.0167,300.91,71,3,6.18,PF,1650173656
552,yulara,-25.2406,130.9889,305.06,17,2,3.6,AU,1650173657
553,namibe,-15.1961,12.1522,295.8,75,80,1.3,AO,1650173658
554,huarmey,-10.0681,-78.1522,292.06,88,97,2.78,PE,1650173659
555,cuamba,-14.8031,36.5372,294.98,90,24,1.64,MZ,1650173660
556,meadow lake,34.8014,-106.5436,291.55,13,2,5.93,US,1650173420
557,sasaram,24.951,84.0149,316.22,4,1,2.81,IN,1650173661
558,carutapera,-1.195,-46.02,297.37,94,100,1.06,BR,1650173662
559,karratha,-20.7377,116.8463,308.68,24,25,5.71,AU,1650173663
560,batagay-alyta,67.8006,130.4114,265.56,79,86,2.98,RU,1650173664
561,kenora,49.8167,-94.4337,268.69,46,0,1.54,CA,1650173664
562,sinnamary,5.3833,-52.95,298.21,87,97,4.91,GF,1650173665
563,anupgarh,29.1911,73.2086,311.83,13,41,4.05,IN,1650173666
564,amahai,-3.3333,128.9167,302.41,71,84,1.86,ID,1650173667
565,havre-saint-pierre,50.2334,-63.5986,273.35,93,100,2.57,CA,1650173668
566,fort nelson,58.8053,-122.7002,263.92,86,100,4.12,CA,1650173671
567,toma,12.7667,-2.8833,299.37,42,100,2.93,BF,1650173672
568,sampit,-2.5333,112.95,308.53,43,93,0.31,ID,1650173521
569,saint-junien,45.8833,0.9,283.06,87,4,1.64,FR,1650173674
570,katangli,51.7102,143.2326,272.51,85,99,6.86,RU,1650173674
571,juba,4.8517,31.5825,298.98,65,99,2.28,SS,1650173675
572,samarai,-10.6167,150.6667,301.81,73,88,4.57,PG,1650173676
573,oda,35.1833,132.5,292.58,45,1,2.72,JP,1650173676
574,namwala,-15.7504,26.4384,293.03,89,100,3.35,ZM,1650173655
575,agadir,30.4202,-9.5982,291.4,26,93,3.26,MA,1650173678
576,santa lucia,27.9117,-15.5407,294.13,60,0,7.72,ES,1650173679
577,tomatlan,19.9333,-105.25,294.33,57,100,0.64,MX,1650173680
578,zambezi,-13.5432,23.1047,291.87,96,100,3.11,ZM,1650173680
579,isla vista,34.4133,-119.861,288.49,83,0,1.54,US,1650173681
580,oktyabrskiy,54.4815,53.471,279.59,63,95,4.38,RU,1650173682
581,sechura,-5.5569,-80.8222,292.94,80,15,5.59,PE,1650173683
582,comonfort,20.7167,-100.7667,297.15,52,92,2.19,MX,1650173684
583,ust-nera,64.5667,143.2,268.99,71,100,0.35,RU,1650173684
584,tuban,-6.8976,112.0649,303.08,71,50,3.76,ID,1650173665
